[
  {
    "category": "Bikes",
    "title": "GoBike Station",
    "subtitle": "College Ave at Alcatraz Ave",
    "latitude": 37.8513755,
    "longitude": -122.2525233,
    "color": "#636e72",
    "icon": "bicycle"
  },
  {
    "category": "Bikes",
    "title": "GoBike Station",
    "subtitle": "MLK Jr Way at University Ave",
    "latitude": 37.8717192,
    "longitude": -122.2730677,
    "color": "#636e72",
    "icon": "bicycle"
  },
  {
    "category": "Bikes",
    "title": "GoBike Station",
    "subtitle": "Bancroft Way at Telegraph Ave",
    "latitude": 37.8688126,
    "longitude": -122.258764,
    "color": "#636e72",
    "icon": "bicycle"
  },
  {
    "category": "Bikes",
    "title": "GoBike Station",
    "subtitle": "Haste St at Telegraph Ave",
    "latitude": 37.8660431,
    "longitude": -122.2588044,
    "color": "#636e72",
    "icon": "bicycle"
  },
  {
    "category": "Bikes",
    "title": "GoBike Station",
    "subtitle": "Ashby BART Station",
    "latitude": 37.8524766,
    "longitude": -122.2702132,
    "color": "#636e72",
    "icon": "bicycle"
  },
  {
    "category": "Bikes",
    "title": "GoBike Station",
    "subtitle": "Milvia St at Derby St",
    "latitude": 37.8601246,
    "longitude": -122.2693844,
    "color": "#636e72",
    "icon": "bicycle"
  },
  {
    "category": "Bikes",
    "title": "GoBike Station",
    "subtitle": "Bancroft Way at College Ave",
    "latitude": 37.8693603,
    "longitude": -122.2543374,
    "color": "#636e72",
    "icon": "bicycle"
  },
  {
    "category": "Bikes",
    "title": "GoBike Station",
    "subtitle": "Shattuck Ave at Hearst Ave",
    "latitude": 37.87367621,
    "longitude": -122.2684872,
    "color": "#636e72",
    "icon": "bicycle"
  },
  {
    "category": "Bikes",
    "title": "GoBike Station",
    "subtitle": "Downtown Berkeley BART",
    "latitude": 37.870139,
    "longitude": -122.268422,
    "color": "#636e72",
    "icon": "bicycle"
  },
  {
    "category": "Bikes",
    "title": "GoBike Station",
    "subtitle": "Berkeley Civic Center",
    "latitude": 37.8690599,
    "longitude": -122.270556,
    "color": "#636e72",
    "icon": "bicycle"
  },
  {
    "category": "Bikes",
    "title": "GoBike Station",
    "subtitle": "Fulton St at Bancroft Way",
    "latitude": 37.8677892,
    "longitude": -122.2658964,
    "color": "#636e72",
    "icon": "bicycle"
  },
  {
    "category": "Bikes",
    "title": "GoBike Station",
    "subtitle": "Telegraph Ave at Ashby Ave",
    "latitude": 37.8559558,
    "longitude": -122.2597949,
    "color": "#636e72",
    "icon": "bicycle"
  },
  {
    "category": "Bikes",
    "title": "GoBike Station",
    "subtitle": "Russell St at College Ave",
    "latitude": 37.8584732,
    "longitude": -122.2532529,
    "color": "#636e72",
    "icon": "bicycle"
  },
  {
    "category": "Bikes",
    "title": "GoBike Station",
    "subtitle": "North Berkeley BART Station",
    "latitude": 37.873558,
    "longitude": -122.283093,
    "color": "#636e72",
    "icon": "bicycle"
  },
  {
    "category": "Bikes",
    "title": "GoBike Station",
    "subtitle": "California St at University Ave",
    "latitude": 37.87055533,
    "longitude": -122.2797203,
    "color": "#636e72",
    "icon": "bicycle"
  },
  {
    "category": "Bikes",
    "title": "GoBike Station",
    "subtitle": "Channing Way at Shattuck Ave",
    "latitude": 37.8658466,
    "longitude": -122.2674431,
    "color": "#636e72",
    "icon": "bicycle"
  },
  {
    "category": "Bikes",
    "title": "GoBike Station",
    "subtitle": "Haste St at College Ave",
    "latitude": 37.86641794,
    "longitude": -122.2537994,
    "color": "#636e72",
    "icon": "bicycle"
  },
  {
    "category": "Bikes",
    "title": "GoBike Station",
    "subtitle": "Vine St at Shattuck Ave",
    "latitude": 37.88022245,
    "longitude": -122.2695923,
    "color": "#636e72",
    "icon": "bicycle"
  },
  {
    "category": "Bikes",
    "title": "GoBike Station",
    "subtitle": "Virginia St at Shattuck Ave",
    "latitude": 37.87657255,
    "longitude": -122.2695279,
    "color": "#636e72",
    "icon": "bicycle"
  },
  {
    "category": "Bikes",
    "title": "GoBike Station",
    "subtitle": "Hearst Ave at Euclid Ave",
    "latitude": 37.87511169,
    "longitude": -122.2605532,
    "color": "#636e72",
    "icon": "bicycle"
  },
  {
    "category": "Bikes",
    "title": "GoBike Station",
    "subtitle": "Fifth St at Delaware St",
    "latitude": 37.87040712,
    "longitude": -122.2996759,
    "color": "#636e72",
    "icon": "bicycle"
  },
  {
    "category": "Bikes",
    "title": "GoBike Station",
    "subtitle": "University Ave at Oxford St",
    "latitude": 37.8723555,
    "longitude": -122.2664467,
    "color": "#636e72",
    "icon": "bicycle"
  },
  {
    "category": "Bikes",
    "title": "GoBike Station",
    "subtitle": "Addison St at Fourth St",
    "latitude": 37.866249,
    "longitude": -122.2993708,
    "color": "#636e72",
    "icon": "bicycle"
  },
  {
    "category": "Bikes",
    "title": "GoBike Station",
    "subtitle": "West St at University Ave",
    "latitude": 37.86996671,
    "longitude": -122.2865331,
    "color": "#636e72",
    "icon": "bicycle"
  },
  {
    "category": "Bikes",
    "title": "GoBike Station",
    "subtitle": "Channing Way at San Pablo Ave",
    "latitude": 37.8628271,
    "longitude": -122.2902305,
    "color": "#636e72",
    "icon": "bicycle"
  },
  {
    "category": "Bikes",
    "title": "GoBike Station",
    "subtitle": "Ninth St at Parker St",
    "latitude": 37.8588682,
    "longitude": -122.2912095,
    "color": "#636e72",
    "icon": "bicycle"
  },
  {
    "category": "Bikes",
    "title": "GoBike Station",
    "subtitle": "Parker St at Fulton St",
    "latitude": 37.8624644,
    "longitude": -122.2647911,
    "color": "#636e72",
    "icon": "bicycle"
  },
  {
    "category": "Bikes",
    "title": "GoBike Station",
    "subtitle": "Derby St at College Ave",
    "latitude": 37.8618037,
    "longitude": -122.2535687,
    "color": "#636e72",
    "icon": "bicycle"
  },
  {
    "category": "Bikes",
    "title": "GoBike Station",
    "subtitle": "Ellsworth St at Russell St",
    "latitude": 37.85749021,
    "longitude": -122.2615778,
    "color": "#636e72",
    "icon": "bicycle"
  },
  {
    "category": "Bikes",
    "title": "GoBike Station",
    "subtitle": "Telegraph Ave at Carleton St",
    "latitude": 37.8623199,
    "longitude": -122.258801,
    "color": "#636e72",
    "icon": "bicycle"
  },
  {
    "category": "Bikes",
    "title": "GoBike Station",
    "subtitle": "Ninth St at Heinz Ave",
    "latitude": 37.8534894,
    "longitude": -122.2894154,
    "color": "#636e72",
    "icon": "bicycle"
  },
  {
    "category": "Bikes",
    "title": "GoBike Station",
    "subtitle": "San Pablo Park",
    "latitude": 37.85578332,
    "longitude": -122.2831267,
    "color": "#636e72",
    "icon": "bicycle"
  },
  {
    "category": "Bikes",
    "title": "GoBike Station",
    "subtitle": "Fulton St at Ashby Ave",
    "latitude": 37.85557366,
    "longitude": -122.2635654,
    "color": "#636e72",
    "icon": "bicycle"
  },
  {
    "category": "Bikes",
    "title": "GoBike Station",
    "subtitle": "Oregon St at Adeline St",
    "latitude": 37.8575672,
    "longitude": -122.2675583,
    "color": "#636e72",
    "icon": "bicycle"
  },
  {
    "category": "Bikes",
    "title": "GoBike Station",
    "subtitle": "Harmon St at Adeline St",
    "latitude": 37.849735,
    "longitude": -122.270582,
    "color": "#636e72",
    "icon": "bicycle"
  },
  {
    "category": "Bikes",
    "title": "GoBike Station",
    "subtitle": "10th St at University Ave",
    "latitude": 37.86906048,
    "longitude": -122.2933996,
    "color": "#636e72",
    "icon": "bicycle"
  },
  {
    "category": "Bikes",
    "title": "GoBike Station",
    "subtitle": "Woolsey St at Sacramento St",
    "latitude": 37.8505777,
    "longitude": -122.2781754,
    "color": "#636e72",
    "icon": "bicycle"
  },
  {
    "category": "Food",
    "title": "Bear Market",
    "subtitle": "None",
    "latitude": 37.867293,
    "longitude": -122.260385,
    "color": "#16a085",
    "icon": "pizza"
  },
  {
    "category": "Food",
    "title": "Brown's",
    "subtitle": "None",
    "latitude": 37.873334,
    "longitude": -122.264876,
    "color": "#16a085",
    "icon": "pizza"
  },
  {
    "category": "Food",
    "title": "Cafe 3",
    "subtitle": "None",
    "latitude": 37.867025,
    "longitude": -122.260318,
    "color": "#16a085",
    "icon": "pizza"
  },
  {
    "category": "Food",
    "title": "CK Cub",
    "subtitle": "None",
    "latitude": 37.863844,
    "longitude": -122.248774,
    "color": "#16a085",
    "icon": "pizza"
  },
  {
    "category": "Food",
    "title": "Clark Kerr",
    "subtitle": "None",
    "latitude": 37.863875,
    "longitude": -122.248458,
    "color": "#16a085",
    "icon": "pizza"
  },
  {
    "category": "Food",
    "title": "Common Grounds",
    "subtitle": "None",
    "latitude": 37.870767,
    "longitude": -122.260766,
    "color": "#16a085",
    "icon": "pizza"
  },
  {
    "category": "Food",
    "title": "Crossroads",
    "subtitle": "None",
    "latitude": 37.867029,
    "longitude": -122.256161,
    "color": "#16a085",
    "icon": "pizza"
  },
  {
    "category": "Food",
    "title": "Cub Market",
    "subtitle": "None",
    "latitude": 37.875392,
    "longitude": -122.256036,
    "color": "#16a085",
    "icon": "pizza"
  },
  {
    "category": "Food",
    "title": "Foothill Dining Commons",
    "subtitle": "None",
    "latitude": 37.875435,
    "longitude": -122.255899,
    "color": "#16a085",
    "icon": "pizza"
  },
  {
    "category": "Food",
    "title": "Peet's Coffee Cart at RSF",
    "subtitle": "None",
    "latitude": 37.868569,
    "longitude": -122.262343,
    "color": "#16a085",
    "icon": "pizza"
  },
  {
    "category": "Food",
    "title": "Terrace Café",
    "subtitle": "None",
    "latitude": 37.874136,
    "longitude": -122.258394,
    "color": "#16a085",
    "icon": "pizza"
  },
  {
    "category": "Food",
    "title": "The Den",
    "subtitle": "None",
    "latitude": 37.866859,
    "longitude": -122.256233,
    "color": "#16a085",
    "icon": "pizza"
  },
  {
    "category": "Food",
    "title": "The Golden Bear Café",
    "subtitle": "None",
    "latitude": 37.869844,
    "longitude": -122.259647,
    "color": "#16a085",
    "icon": "pizza"
  },
  {
    "category": "Food",
    "title": "The Pro Shop",
    "subtitle": "None",
    "latitude": 37.868808,
    "longitude": -122.262377,
    "color": "#16a085",
    "icon": "pizza"
  },
  {
    "category": "Food",
    "title": "Haas Pavilion Kitchen & Concessions",
    "subtitle": "None",
    "latitude": 37.869437,
    "longitude": -122.262148,
    "color": "#16a085",
    "icon": "pizza"
  },
  {
    "category": "Food",
    "title": "Memorial Stadium Catering",
    "subtitle": "None",
    "latitude": 37.871069,
    "longitude": -122.250794,
    "color": "#16a085",
    "icon": "pizza"
  },
  {
    "category": "Food",
    "title": "TeaOne Tea and Coffee",
    "subtitle": "None",
    "latitude": 37.868766,
    "longitude": -122.260216,
    "color": "#16a085",
    "icon": "pizza"
  },
  {
    "category": "Food",
    "title": "TeaOne Tea and Coffee",
    "subtitle": "None",
    "latitude": 37.87504,
    "longitude": -122.257492,
    "color": "#16a085",
    "icon": "pizza"
  },
  {
    "category": "Food",
    "title": "The Coffee Lab",
    "subtitle": "None",
    "latitude": 37.872784,
    "longitude": -122.255826,
    "color": "#16a085",
    "icon": "pizza"
  },
  {
    "category": "Food",
    "title": "V&A Café",
    "subtitle": "None",
    "latitude": 37.87551,
    "longitude": -122.259171,
    "color": "#16a085",
    "icon": "pizza"
  },
  {
    "category": "Food",
    "title": "Café Think",
    "subtitle": "None",
    "latitude": 37.872499,
    "longitude": -122.254577,
    "color": "#16a085",
    "icon": "pizza"
  },
  {
    "category": "Food",
    "title": "Café Zeb",
    "subtitle": "None",
    "latitude": 37.869787,
    "longitude": -122.253333,
    "color": "#16a085",
    "icon": "pizza"
  },
  {
    "category": "Food",
    "title": "Free Speech Movement Café",
    "subtitle": "None",
    "latitude": 37.87239,
    "longitude": -122.260963,
    "color": "#16a085",
    "icon": "pizza"
  },
  {
    "category": "Food",
    "title": "Press",
    "subtitle": "None",
    "latitude": 37.872761,
    "longitude": -122.260427,
    "color": "#16a085",
    "icon": "pizza"
  },
  {
    "category": "Food",
    "title": "Micro Yali's",
    "subtitle": "None",
    "latitude": 37.871611,
    "longitude": -122.261803,
    "color": "#16a085",
    "icon": "pizza"
  },
  {
    "category": "Food",
    "title": "Yali's Coffee Shop",
    "subtitle": "None",
    "latitude": 37.873912,
    "longitude": -122.256486,
    "color": "#16a085",
    "icon": "pizza"
  },
  {
    "category": "Food",
    "title": "Yali’s Qualcomm Cafe",
    "subtitle": "None",
    "latitude": 37.874711,
    "longitude": -122.258636,
    "color": "#16a085",
    "icon": "pizza"
  },
  {
    "category": "Microwaves",
    "title": "Common Grounds Microwave",
    "subtitle": "None",
    "latitude": 37.8706313,
    "longitude": -122.2607799,
    "color": "#e74c3c",
    "icon": "thermometer"
  },
  {
    "category": "Microwaves",
    "title": "Cory Hall Microwave",
    "subtitle": "None",
    "latitude": 37.875139,
    "longitude": -122.257422,
    "color": "#e74c3c",
    "icon": "thermometer"
  },
  {
    "category": "Microwaves",
    "title": "Davis Hall Microwave",
    "subtitle": "None",
    "latitude": 37.8746332,
    "longitude": -122.2581178,
    "color": "#e74c3c",
    "icon": "thermometer"
  },
  {
    "category": "Microwaves",
    "title": "Foothill Student Housing 6 Microwave",
    "subtitle": "None",
    "latitude": 37.8753488,
    "longitude": -122.2549742,
    "color": "#e74c3c",
    "icon": "thermometer"
  },
  {
    "category": "Microwaves",
    "title": "Golden Bear Cafe Microwave",
    "subtitle": "None",
    "latitude": 37.869847,
    "longitude": -122.259739,
    "color": "#e74c3c",
    "icon": "thermometer"
  },
  {
    "category": "Microwaves",
    "title": "Haas School of Business Microwave",
    "subtitle": "None",
    "latitude": 37.8716225,
    "longitude": -122.2535004,
    "color": "#e74c3c",
    "icon": "thermometer"
  },
  {
    "category": "Microwaves",
    "title": "Le Conte Hall Microwaves",
    "subtitle": "None",
    "latitude": 37.872817,
    "longitude": -122.257466,
    "color": "#e74c3c",
    "icon": "thermometer"
  },
  {
    "category": "Microwaves",
    "title": "Soda Hall Microwave",
    "subtitle": "None",
    "latitude": 37.8756495,
    "longitude": -122.2586918,
    "color": "#e74c3c",
    "icon": "thermometer"
  },
  {
    "category": "Microwaves",
    "title": "Stiles Hall Microwave",
    "subtitle": "None",
    "latitude": 37.8692299,
    "longitude": -122.2596788,
    "color": "#e74c3c",
    "icon": "thermometer"
  },
  {
    "category": "Microwaves",
    "title": "Terrace Cafe Microwave",
    "subtitle": "None",
    "latitude": 37.874203,
    "longitude": -122.25842,
    "color": "#e74c3c",
    "icon": "thermometer"
  },
  {
    "category": "Microwaves",
    "title": "The Pro Shop Microwave",
    "subtitle": "None",
    "latitude": 37.868745,
    "longitude": -122.2626574,
    "color": "#e74c3c",
    "icon": "thermometer"
  },
  {
    "category": "Microwaves",
    "title": "Transfer Center Microwave",
    "subtitle": "None",
    "latitude": 37.8696978,
    "longitude": -122.2602582,
    "color": "#e74c3c",
    "icon": "thermometer"
  },
  {
    "category": "Microwaves",
    "title": "Valley Life Sciences Building Microwave",
    "subtitle": "None",
    "latitude": 37.871513,
    "longitude": -122.261768,
    "color": "#e74c3c",
    "icon": "thermometer"
  },
  {
    "category": "Nap Spaces",
    "title": "Bechtel Engineering Library",
    "subtitle": "None",
    "latitude": 37.8741123,
    "longitude": -122.2581875,
    "color": "#9b59b6",
    "icon": "bed"
  },
  {
    "category": "Nap Spaces",
    "title": "Tang Center Massage Chairs",
    "subtitle": "None",
    "latitude": 37.8677985,
    "longitude": -122.2643459,
    "color": "#9b59b6",
    "icon": "bed"
  },
  {
    "category": "Nap Spaces",
    "title": "Wurster Library",
    "subtitle": "None",
    "latitude": 37.8707925,
    "longitude": -122.2544754,
    "color": "#9b59b6",
    "icon": "bed"
  },
  {
    "category": "Nap Spaces",
    "title": "Tolman Tech Lounge",
    "subtitle": "None",
    "latitude": 37.8740954,
    "longitude": -122.2638604,
    "color": "#9b59b6",
    "icon": "bed"
  },
  {
    "category": "Nap Spaces",
    "title": "Hildebrand Hall",
    "subtitle": "None",
    "latitude": 37.8725358,
    "longitude": -122.2557257,
    "color": "#9b59b6",
    "icon": "bed"
  },
  {
    "category": "Nap Spaces",
    "title": "Recreational Sports Facility",
    "subtitle": "None",
    "latitude": 37.8685524,
    "longitude": -122.2628143,
    "color": "#9b59b6",
    "icon": "bed"
  },
  {
    "category": "Nap Spaces",
    "title": "Moffitt Library",
    "subtitle": "None",
    "latitude": 37.873366,
    "longitude": -122.259847,
    "color": "#9b59b6",
    "icon": "bed"
  },
  {
    "category": "Nap Spaces",
    "title": "Memorial Glade",
    "subtitle": "None",
    "latitude": 37.8732856,
    "longitude": -122.2596279,
    "color": "#9b59b6",
    "icon": "bed"
  },
  {
    "category": "Nap Spaces",
    "title": "Hearst Mining Circle",
    "subtitle": "None",
    "latitude": 37.8736804,
    "longitude": -122.2570235,
    "color": "#9b59b6",
    "icon": "bed"
  },
  {
    "category": "Nap Spaces",
    "title": "Faculty Glade",
    "subtitle": "None",
    "latitude": 37.871398,
    "longitude": -122.2566372,
    "color": "#9b59b6",
    "icon": "bed"
  },
  {
    "category": "Nap Spaces",
    "title": "Haas Library",
    "subtitle": "None",
    "latitude": 37.8714319,
    "longitude": -122.2535527,
    "color": "#9b59b6",
    "icon": "bed"
  },
  {
    "category": "Nap Spaces",
    "title": "Music Library",
    "subtitle": "None",
    "latitude": 37.8704579,
    "longitude": -122.2561437,
    "color": "#9b59b6",
    "icon": "bed"
  },
  {
    "category": "Nap Spaces",
    "title": "Ishi Court",
    "subtitle": "None",
    "latitude": 37.870911,
    "longitude": -122.2608054,
    "color": "#9b59b6",
    "icon": "bed"
  },
  {
    "category": "Nap Spaces",
    "title": "Barker Hall",
    "subtitle": "None",
    "latitude": 37.8736889,
    "longitude": -122.2655153,
    "color": "#9b59b6",
    "icon": "bed"
  },
  {
    "category": "Nap Spaces",
    "title": "Observatory Hill",
    "subtitle": "None",
    "latitude": 37.8741505,
    "longitude": -122.2606176,
    "color": "#9b59b6",
    "icon": "bed"
  },
  {
    "category": "Nap Spaces",
    "title": "Qualcomm Cafe",
    "subtitle": "None",
    "latitude": 37.8746798,
    "longitude": -122.2588152,
    "color": "#9b59b6",
    "icon": "bed"
  },
  {
    "category": "Nap Spaces",
    "title": "Campanile Esplanade",
    "subtitle": "None",
    "latitude": 37.8723614,
    "longitude": -122.2579622,
    "color": "#9b59b6",
    "icon": "bed"
  },
  {
    "category": "Nap Spaces",
    "title": "Gianini House",
    "subtitle": "None",
    "latitude": 37.8735153,
    "longitude": -122.2620526,
    "color": "#9b59b6",
    "icon": "bed"
  },
  {
    "category": "Refill Stations",
    "title": "Barker Hall Refill Station",
    "subtitle": "None",
    "latitude": 37.874005,
    "longitude": -122.26544,
    "color": "#3498db",
    "icon": "water"
  },
  {
    "category": "Refill Stations",
    "title": "Barrows Hall Refill Station",
    "subtitle": "None",
    "latitude": 37.870051,
    "longitude": -122.258032,
    "color": "#3498db",
    "icon": "water"
  },
  {
    "category": "Refill Stations",
    "title": "Bechtel Engineering Center Refill Station",
    "subtitle": "None",
    "latitude": 37.874202,
    "longitude": -122.258139,
    "color": "#3498db",
    "icon": "water"
  },
  {
    "category": "Refill Stations",
    "title": "Birge Hall Refill Stations",
    "subtitle": "None",
    "latitude": 37.872237,
    "longitude": -122.257146,
    "color": "#3498db",
    "icon": "water"
  },
  {
    "category": "Refill Stations",
    "title": "Campbell Hall Refill Stations",
    "subtitle": "None",
    "latitude": 37.872996,
    "longitude": -122.257058,
    "color": "#3498db",
    "icon": "water"
  },
  {
    "category": "Refill Stations",
    "title": "Cesar E. Chavez Student Center Refill Station",
    "subtitle": "None",
    "latitude": 37.8698,
    "longitude": -122.260043,
    "color": "#3498db",
    "icon": "water"
  },
  {
    "category": "Refill Stations",
    "title": "Cheit Hall Refill Station",
    "subtitle": "None",
    "latitude": 37.871823,
    "longitude": -122.254267,
    "color": "#3498db",
    "icon": "water"
  },
  {
    "category": "Refill Stations",
    "title": "Chou Hall Refill Stations",
    "subtitle": "None",
    "latitude": 37.872388,
    "longitude": -122.254399,
    "color": "#3498db",
    "icon": "water"
  },
  {
    "category": "Refill Stations",
    "title": "Cory Hall Refill Station",
    "subtitle": "None",
    "latitude": 37.875253,
    "longitude": -122.257619,
    "color": "#3498db",
    "icon": "water"
  },
  {
    "category": "Refill Stations",
    "title": "Davis Hall Refill Station",
    "subtitle": "None",
    "latitude": 37.874526,
    "longitude": -122.258559,
    "color": "#3498db",
    "icon": "water"
  },
  {
    "category": "Refill Stations",
    "title": "Doe Library Refill Stations",
    "subtitle": "None",
    "latitude": 37.872155,
    "longitude": -122.259472,
    "color": "#3498db",
    "icon": "water"
  },
  {
    "category": "Refill Stations",
    "title": "Dwinelle Annex Refill Stations",
    "subtitle": "None",
    "latitude": 37.870319,
    "longitude": -122.26122,
    "color": "#3498db",
    "icon": "water"
  },
  {
    "category": "Refill Stations",
    "title": "Dwinelle Hall Refill Stations",
    "subtitle": "None",
    "latitude": 37.870635,
    "longitude": -122.260488,
    "color": "#3498db",
    "icon": "water"
  },
  {
    "category": "Refill Stations",
    "title": "Eshleman Hall Refill Stations",
    "subtitle": "None",
    "latitude": 37.868742,
    "longitude": -122.260604,
    "color": "#3498db",
    "icon": "water"
  },
  {
    "category": "Refill Stations",
    "title": "Evans Hall Refill Station",
    "subtitle": "None",
    "latitude": 37.873514,
    "longitude": -122.257798,
    "color": "#3498db",
    "icon": "water"
  },
  {
    "category": "Refill Stations",
    "title": "GPB Teaching Building Refill Station",
    "subtitle": "None",
    "latitude": 37.873427,
    "longitude": -122.264744,
    "color": "#3498db",
    "icon": "water"
  },
  {
    "category": "Refill Stations",
    "title": "Gilman Hall Refill Stations",
    "subtitle": "None",
    "latitude": 37.872627,
    "longitude": -122.256277,
    "color": "#3498db",
    "icon": "water"
  },
  {
    "category": "Refill Stations",
    "title": "Hargrove Music Library Refill Stations",
    "subtitle": "None",
    "latitude": 37.870442,
    "longitude": -122.256131,
    "color": "#3498db",
    "icon": "water"
  },
  {
    "category": "Refill Stations",
    "title": "Haviland Hall Refill Stations",
    "subtitle": "None",
    "latitude": 37.873744,
    "longitude": -122.261051,
    "color": "#3498db",
    "icon": "water"
  },
  {
    "category": "Refill Stations",
    "title": "Hildebrand Hall Refill Station",
    "subtitle": "None",
    "latitude": 37.872573,
    "longitude": -122.255685,
    "color": "#3498db",
    "icon": "water"
  },
  {
    "category": "Refill Stations",
    "title": "Jacobs Hall Refill Station",
    "subtitle": "None",
    "latitude": 37.876034,
    "longitude": -122.258822,
    "color": "#3498db",
    "icon": "water"
  },
  {
    "category": "Refill Stations",
    "title": "Kroeber Hall Refill Stations",
    "subtitle": "None",
    "latitude": 37.869866,
    "longitude": -122.255218,
    "color": "#3498db",
    "icon": "water"
  },
  {
    "category": "Refill Stations",
    "title": "Latimer Hall Refill Station",
    "subtitle": "None",
    "latitude": 37.87313,
    "longitude": -122.255909,
    "color": "#3498db",
    "icon": "water"
  },
  {
    "category": "Refill Stations",
    "title": "Le Conte Hall Refill Stations",
    "subtitle": "None",
    "latitude": 37.872557,
    "longitude": -122.257387,
    "color": "#3498db",
    "icon": "water"
  },
  {
    "category": "Refill Stations",
    "title": "Li Ka Shing Center Refill Stations",
    "subtitle": "None",
    "latitude": 37.872802,
    "longitude": -122.265194,
    "color": "#3498db",
    "icon": "water"
  },
  {
    "category": "Refill Stations",
    "title": "Long Business Library Refill Station",
    "subtitle": "None",
    "latitude": 37.871466,
    "longitude": -122.253461,
    "color": "#3498db",
    "icon": "water"
  },
  {
    "category": "Refill Stations",
    "title": "McCone Hall Refill Station",
    "subtitle": "None",
    "latitude": 37.874155,
    "longitude": -122.25966,
    "color": "#3498db",
    "icon": "water"
  },
  {
    "category": "Refill Stations",
    "title": "MLK Student Union Refill Stations",
    "subtitle": "None",
    "latitude": 37.869016,
    "longitude": -122.259658,
    "color": "#3498db",
    "icon": "water"
  },
  {
    "category": "Refill Stations",
    "title": "Moffitt Library Refill Stations",
    "subtitle": "None",
    "latitude": 37.87271,
    "longitude": -122.260746,
    "color": "#3498db",
    "icon": "water"
  },
  {
    "category": "Refill Stations",
    "title": "Morrison Hall Refill Stations",
    "subtitle": "None",
    "latitude": 37.870879,
    "longitude": -122.256476,
    "color": "#3498db",
    "icon": "water"
  },
  {
    "category": "Refill Stations",
    "title": "Moses Hall Refill Stations",
    "subtitle": "None",
    "latitude": 37.870998,
    "longitude": -122.258049,
    "color": "#3498db",
    "icon": "water"
  },
  {
    "category": "Refill Stations",
    "title": "Mulford Hall Refill Station",
    "subtitle": "None",
    "latitude": 37.872593,
    "longitude": -122.264495,
    "color": "#3498db",
    "icon": "water"
  },
  {
    "category": "Refill Stations",
    "title": "North Gate Hall Refill Station",
    "subtitle": "None",
    "latitude": 37.874837,
    "longitude": -122.25984,
    "color": "#3498db",
    "icon": "water"
  },
  {
    "category": "Refill Stations",
    "title": "Pimentel Hall Refill Station",
    "subtitle": "None",
    "latitude": 37.873419,
    "longitude": -122.256035,
    "color": "#3498db",
    "icon": "water"
  },
  {
    "category": "Refill Stations",
    "title": "Soda Hall Refill Stations",
    "subtitle": "None",
    "latitude": 37.875747,
    "longitude": -122.258677,
    "color": "#3498db",
    "icon": "water"
  },
  {
    "category": "Refill Stations",
    "title": "Sproul Hall Refill Stations",
    "subtitle": "None",
    "latitude": 37.869685,
    "longitude": -122.258809,
    "color": "#3498db",
    "icon": "water"
  },
  {
    "category": "Refill Stations",
    "title": "Stanley Hall Refill Stations",
    "subtitle": "None",
    "latitude": 37.873904,
    "longitude": -122.256111,
    "color": "#3498db",
    "icon": "water"
  },
  {
    "category": "Refill Stations",
    "title": "Stephens Hall Refill Station",
    "subtitle": "None",
    "latitude": 37.871322,
    "longitude": -122.257543,
    "color": "#3498db",
    "icon": "water"
  },
  {
    "category": "Refill Stations",
    "title": "Sutardja Dai Hall Refill Stations",
    "subtitle": "None",
    "latitude": 37.874832,
    "longitude": -122.25824,
    "color": "#3498db",
    "icon": "water"
  },
  {
    "category": "Refill Stations",
    "title": "Tang Center Refill Stations",
    "subtitle": "None",
    "latitude": 37.867491,
    "longitude": -122.264266,
    "color": "#3498db",
    "icon": "water"
  },
  {
    "category": "Refill Stations",
    "title": "Tolman Hall Refill Stations",
    "subtitle": "None",
    "latitude": 37.87412,
    "longitude": -122.264211,
    "color": "#3498db",
    "icon": "water"
  },
  {
    "category": "Refill Stations",
    "title": "Valley Life Sciences Building Refill Station",
    "subtitle": "None",
    "latitude": 37.871468,
    "longitude": -122.262126,
    "color": "#3498db",
    "icon": "water"
  },
  {
    "category": "Refill Stations",
    "title": "Wellman Hall Refill Stations",
    "subtitle": "None",
    "latitude": 37.873129,
    "longitude": -122.262789,
    "color": "#3498db",
    "icon": "water"
  },
  {
    "category": "Refill Stations",
    "title": "Wheeler Hall Refill Stations",
    "subtitle": "None",
    "latitude": 37.871056,
    "longitude": -122.259082,
    "color": "#3498db",
    "icon": "water"
  },
  {
    "category": "Refill Stations",
    "title": "Wurster Hall Refill Station",
    "subtitle": "None",
    "latitude": 37.870761,
    "longitude": -122.25492,
    "color": "#3498db",
    "icon": "water"
  },
  {
    "category": "Restrooms",
    "title": "All-Gender Restrooms",
    "subtitle": "",
    "latitude": 37.8711704,
    "longitude": -122.2530659,
    "color": "#FFC312",
    "icon": "woman"
  },
  {
    "category": "Restrooms",
    "title": "All-Gender Restrooms",
    "subtitle": "",
    "latitude": 37.8709936,
    "longitude": -122.253027,
    "color": "#FFC312",
    "icon": "woman"
  },
  {
    "category": "Restrooms",
    "title": "All-Gender Restrooms",
    "subtitle": "",
    "latitude": 37.8707776,
    "longitude": -122.2529787,
    "color": "#FFC312",
    "icon": "woman"
  },
  {
    "category": "Restrooms",
    "title": "All-Gender Restrooms",
    "subtitle": "",
    "latitude": 37.8706061,
    "longitude": -122.2529358,
    "color": "#FFC312",
    "icon": "woman"
  },
  {
    "category": "Restrooms",
    "title": "All-Gender Restrooms",
    "subtitle": "1st Floor",
    "latitude": 37.8687048,
    "longitude": -122.2611701,
    "color": "#FFC312",
    "icon": "woman"
  },
  {
    "category": "Restrooms",
    "title": "All-Gender Restrooms",
    "subtitle": "C-102, C-208, C-211, B-200, B-213",
    "latitude": 37.866545,
    "longitude": -122.2570342,
    "color": "#FFC312",
    "icon": "woman"
  },
  {
    "category": "Restrooms",
    "title": "All-Gender Restrooms",
    "subtitle": "6th Floor (west end)",
    "latitude": 37.8700641,
    "longitude": -122.2581876,
    "color": "#FFC312",
    "icon": "woman"
  },
  {
    "category": "Restrooms",
    "title": "All-Gender Restrooms",
    "subtitle": "Room 118",
    "latitude": 37.8710254,
    "longitude": -122.2539604,
    "color": "#FFC312",
    "icon": "woman"
  },
  {
    "category": "Restrooms",
    "title": "All-Gender Restrooms",
    "subtitle": "Next to Room 2",
    "latitude": 37.8684581,
    "longitude": -122.2603507,
    "color": "#FFC312",
    "icon": "woman"
  },
  {
    "category": "Restrooms",
    "title": "All-Gender Restrooms",
    "subtitle": "",
    "latitude": 37.8705617,
    "longitude": -122.2605667,
    "color": "#FFC312",
    "icon": "woman"
  },
  {
    "category": "Restrooms",
    "title": "All-Gender Restrooms",
    "subtitle": "2515 Hillegass Ave - 1st Floor and 3rd Floor",
    "latitude": 37.8647953,
    "longitude": -122.2561277,
    "color": "#FFC312",
    "icon": "woman"
  },
  {
    "category": "Restrooms",
    "title": "All-Gender Restrooms",
    "subtitle": "Room 352",
    "latitude": 37.8699201,
    "longitude": -122.2551781,
    "color": "#FFC312",
    "icon": "woman"
  },
  {
    "category": "Restrooms",
    "title": "All-Gender Restrooms",
    "subtitle": "",
    "latitude": 37.8719062,
    "longitude": -122.2537136,
    "color": "#FFC312",
    "icon": "woman"
  },
  {
    "category": "Restrooms",
    "title": "All-Gender Restrooms",
    "subtitle": "Basement Level (secured areas)",
    "latitude": 37.8730072,
    "longitude": -122.26529,
    "color": "#FFC312",
    "icon": "woman"
  },
  {
    "category": "Restrooms",
    "title": "All-Gender Restrooms",
    "subtitle": "Rooms 581, 682",
    "latitude": 37.8714827,
    "longitude": -122.2547114,
    "color": "#FFC312",
    "icon": "woman"
  },
  {
    "category": "Restrooms",
    "title": "All-Gender Restrooms",
    "subtitle": "225, 215",
    "latitude": 37.8709237,
    "longitude": -122.2564495,
    "color": "#FFC312",
    "icon": "woman"
  },
  {
    "category": "Restrooms",
    "title": "All-Gender Restrooms",
    "subtitle": "Basement level -- accessible via external route only",
    "latitude": 37.871415,
    "longitude": -122.2584987,
    "color": "#FFC312",
    "icon": "woman"
  },
  {
    "category": "Restrooms",
    "title": "All-Gender Restrooms",
    "subtitle": "331A",
    "latitude": 37.869611,
    "longitude": -122.2586703,
    "color": "#FFC312",
    "icon": "woman"
  },
  {
    "category": "Restrooms",
    "title": "All-Gender Restrooms",
    "subtitle": "8th Floor (secure area)",
    "latitude": 37.8740616,
    "longitude": -122.2559935,
    "color": "#FFC312",
    "icon": "woman"
  },
  {
    "category": "Restrooms",
    "title": "All-Gender Restrooms",
    "subtitle": "Next to Public Health Library",
    "latitude": 37.8719062,
    "longitude": -122.2663736,
    "color": "#FFC312",
    "icon": "woman"
  },
  {
    "category": "Restrooms",
    "title": "ADA-Accessible All-Gender Restrooms",
    "subtitle": "Rooms 6, 102, 204",
    "latitude": 37.8740023,
    "longitude": -122.265451,
    "color": "#FFC312",
    "icon": "woman"
  },
  {
    "category": "Restrooms",
    "title": "ADA-Accessible All-Gender Restrooms",
    "subtitle": "",
    "latitude": 37.8710084,
    "longitude": -122.266202,
    "color": "#FFC312",
    "icon": "woman"
  },
  {
    "category": "Restrooms",
    "title": "ADA-Accessible All-Gender Restrooms",
    "subtitle": "",
    "latitude": 37.8686857,
    "longitude": -122.2606337,
    "color": "#FFC312",
    "icon": "woman"
  },
  {
    "category": "Restrooms",
    "title": "ADA-Accessible All-Gender Restrooms",
    "subtitle": "B123, B219. Note: Upper levels include single-occupant womens restrooms.",
    "latitude": 37.8722068,
    "longitude": -122.2572595,
    "color": "#FFC312",
    "icon": "woman"
  },
  {
    "category": "Restrooms",
    "title": "ADA-Accessible All-Gender Restrooms",
    "subtitle": "Rooms 285, 309, 348/350, 448/450",
    "latitude": 37.8700175,
    "longitude": -122.2534132,
    "color": "#FFC312",
    "icon": "woman"
  },
  {
    "category": "Restrooms",
    "title": "ADA-Accessible All-Gender Restrooms",
    "subtitle": "Room 59",
    "latitude": 37.8696787,
    "longitude": -122.260505,
    "color": "#FFC312",
    "icon": "woman"
  },
  {
    "category": "Restrooms",
    "title": "ADA-Accessible All-Gender Restrooms",
    "subtitle": "Rooms 219, 335",
    "latitude": 37.874485,
    "longitude": -122.2583351,
    "color": "#FFC312",
    "icon": "woman"
  },
  {
    "category": "Restrooms",
    "title": "ADA-Accessible All-Gender Restrooms",
    "subtitle": "Basement Level near newspapers",
    "latitude": 37.8720332,
    "longitude": -122.2590029,
    "color": "#FFC312",
    "icon": "woman"
  },
  {
    "category": "Restrooms",
    "title": "ADA-Accessible All-Gender Restrooms",
    "subtitle": "3rd, 4th, 5th Floors",
    "latitude": 37.8687725,
    "longitude": -122.2602662,
    "color": "#FFC312",
    "icon": "woman"
  },
  {
    "category": "Restrooms",
    "title": "ADA-Accessible All-Gender Restrooms",
    "subtitle": "1st Floor",
    "latitude": 37.8736169,
    "longitude": -122.2578657,
    "color": "#FFC312",
    "icon": "woman"
  },
  {
    "category": "Restrooms",
    "title": "ADA-Accessible All-Gender Restrooms",
    "subtitle": "Near Room 118",
    "latitude": 37.8726515,
    "longitude": -122.2563207,
    "color": "#FFC312",
    "icon": "woman"
  },
  {
    "category": "Restrooms",
    "title": "ADA-Accessible All-Gender Restrooms",
    "subtitle": "3rd Floor",
    "latitude": 37.8758358,
    "longitude": -122.2578549,
    "color": "#FFC312",
    "icon": "woman"
  },
  {
    "category": "Restrooms",
    "title": "ADA-Accessible All-Gender Restrooms",
    "subtitle": "Behind Circulation Desk",
    "latitude": 37.8704706,
    "longitude": -122.2561249,
    "color": "#FFC312",
    "icon": "woman"
  },
  {
    "category": "Restrooms",
    "title": "ADA-Accessible All-Gender Restrooms",
    "subtitle": "Room 318",
    "latitude": 37.8737249,
    "longitude": -122.2610575,
    "color": "#FFC312",
    "icon": "woman"
  },
  {
    "category": "Restrooms",
    "title": "ADA-Accessible All-Gender Restrooms",
    "subtitle": "Next to Free Speech Cafe. To be re-signed fall 2016.",
    "latitude": 37.872643,
    "longitude": -122.2606337,
    "color": "#FFC312",
    "icon": "woman"
  },
  {
    "category": "Restrooms",
    "title": "ADA-Accessible All-Gender Restrooms",
    "subtitle": "Rooms 121, 115",
    "latitude": 37.8709873,
    "longitude": -122.2581017,
    "color": "#FFC312",
    "icon": "woman"
  },
  {
    "category": "Restrooms",
    "title": "ADA-Accessible All-Gender Restrooms",
    "subtitle": "4th Floor",
    "latitude": 37.8669452,
    "longitude": -122.2556703,
    "color": "#FFC312",
    "icon": "woman"
  },
  {
    "category": "Restrooms",
    "title": "ADA-Accessible All-Gender Restrooms",
    "subtitle": "Rooms 696, 796, 896",
    "latitude": 37.8698312,
    "longitude": -122.2526354,
    "color": "#FFC312",
    "icon": "woman"
  },
  {
    "category": "Restrooms",
    "title": "ADA-Accessible All-Gender Restrooms",
    "subtitle": "242, 342",
    "latitude": 37.8712752,
    "longitude": -122.2575867,
    "color": "#FFC312",
    "icon": "woman"
  },
  {
    "category": "Restrooms",
    "title": "ADA-Accessible All-Gender Restrooms",
    "subtitle": "Floors 1-2-3",
    "latitude": 37.8676376,
    "longitude": -122.2641635,
    "color": "#FFC312",
    "icon": "woman"
  },
  {
    "category": "Restrooms",
    "title": "ADA-Accessible All-Gender Restrooms",
    "subtitle": "Room 403 -- accessible restroom for building",
    "latitude": 37.8708645,
    "longitude": -122.2548723,
    "color": "#FFC312",
    "icon": "woman"
  },
  {
    "category": "Restrooms",
    "title": "ADA-Accessible All-Gender Restrooms",
    "subtitle": "In Herbarium",
    "latitude": 37.8716267,
    "longitude": -122.2616208,
    "color": "#FFC312",
    "icon": "woman"
  },
  {
    "category": "Restrooms",
    "title": "Restrooms with Changing Tables",
    "subtitle": "Basement and second floor",
    "latitude": 37.8700937,
    "longitude": -122.2531557,
    "color": "#FFC312",
    "icon": "woman"
  },
  {
    "category": "Restrooms",
    "title": "Restrooms with Changing Tables",
    "subtitle": "Second floor by RSF",
    "latitude": 37.8715293,
    "longitude": -122.2535151,
    "color": "#FFC312",
    "icon": "woman"
  },
  {
    "category": "Restrooms",
    "title": "Restrooms with Changing Tables",
    "subtitle": "Ground floor",
    "latitude": 37.8713557,
    "longitude": -122.2584933,
    "color": "#FFC312",
    "icon": "woman"
  },
  {
    "category": "Restrooms",
    "title": "Restrooms with Changing Tables",
    "subtitle": "1st floor",
    "latitude": 37.8706654,
    "longitude": -122.2582465,
    "color": "#FFC312",
    "icon": "woman"
  },
  {
    "category": "Restrooms",
    "title": "Restrooms with Changing Tables",
    "subtitle": "1st floor",
    "latitude": 37.8712583,
    "longitude": -122.2601697,
    "color": "#FFC312",
    "icon": "woman"
  },
  {
    "category": "Restrooms",
    "title": "Restrooms with Changing Tables",
    "subtitle": "Floor C",
    "latitude": 37.8707417,
    "longitude": -122.2605318,
    "color": "#FFC312",
    "icon": "woman"
  },
  {
    "category": "Restrooms",
    "title": "Restrooms with Changing Tables",
    "subtitle": "2nd floor",
    "latitude": 37.8697677,
    "longitude": -122.2600946,
    "color": "#FFC312",
    "icon": "woman"
  },
  {
    "category": "Restrooms",
    "title": "Restrooms with Changing Tables",
    "subtitle": "Every floor",
    "latitude": 37.8687958,
    "longitude": -122.2604567,
    "color": "#FFC312",
    "icon": "woman"
  },
  {
    "category": "Restrooms",
    "title": "Restrooms with Changing Tables",
    "subtitle": "2nd Floor",
    "latitude": 37.8741145,
    "longitude": -122.2639516,
    "color": "#FFC312",
    "icon": "woman"
  }
]
